[
  {
    "id": 1,
    "nombre": "Mad Cool Festival 2026",
    "fecha": "2026-07-10",
    "fecha_fin": "2026-07-12",
    "tipo": "concierto",
    "lat": 40.4637,
    "lng": -3.6748,
    "lugar": "Espacio Mad Cool - Valdebebas",
    "precio": "pago",
    "precio_desde": "89€",
    "descripcion": "Festival de música indie, rock y electrónica con artistas internacionales de primer nivel",
    "url": "https://madcoolfestival.com/"
  },
  {
    "id": 2,
    "nombre": "Fiestas de San Isidro 2026",
    "fecha": "2026-05-15",
    "fecha_fin": "2026-05-20",
    "tipo": "fiesta",
    "lat": 40.4086,
    "lng": -3.6922,
    "lugar": "Pradera de San Isidro",
    "precio": "gratis",
    "descripcion": "Fiestas patronales de Madrid con verbenas, conciertos gratuitos y actividades tradicionales",
    "url": "https://www.madrid.es/"
  },
  {
    "id": 3,
    "nombre": "El Rastro",
    "fecha": "2026-04-26",
    "tipo": "mercado",
    "lat": 40.4089,
    "lng": -3.7077,
    "lugar": "Ribera de Curtidores - La Latina",
    "precio": "gratis",
    "descripcion": "Mercadillo al aire libre más famoso de Madrid. Domingos y festivos de 9h a 15h",
    "url": "https://www.esmadrid.com/informacion-turistica/el-rastro"
  },
  {
    "id": 4,
    "nombre": "Veranos de la Villa 2026",
    "fecha": "2026-07-01",
    "fecha_fin": "2026-08-31",
    "tipo": "cultural",
    "lat": 40.4168,
    "lng": -3.7038,
    "lugar": "Varios espacios de Madrid",
    "precio": "gratis",
    "descripcion": "Festival cultural de verano con música, teatro, danza y cine al aire libre",
    "url": "https://www.madrid.es/portales/munimadrid/es/Inicio/Cultura-ocio-y-deporte/Cultura-y-ocio/Veranos-de-la-Villa"
  },
  {
    "id": 5,
    "nombre": "Mercado de Motores",
    "fecha": "2026-05-09",
    "fecha_fin": "2026-05-10",
    "tipo": "mercado",
    "lat": 40.3985,
    "lng": -3.6904,
    "lugar": "Museo del Ferrocarril",
    "precio": "gratis",
    "descripcion": "Mercado vintage: moda, vinilos, diseño, gastronomía street food y música en vivo",
    "url": "https://www.mercadodemotores.es/"
  },
  {
    "id": 6,
    "nombre": "Orgullo LGTBI+ Madrid 2026",
    "fecha": "2026-07-03",
    "fecha_fin": "2026-07-07",
    "tipo": "fiesta",
    "lat": 40.4197,
    "lng": -3.6925,
    "lugar": "Chueca - Gran Vía",
    "precio": "gratis",
    "descripcion": "Manifestación, conciertos y eventos del Orgullo LGTBI+, uno de los más grandes de Europa",
    "url": "https://www.madrid.es/"
  },
  {
    "id": 7,
    "nombre": "Noches del Botánico",
    "fecha": "2026-05-15",
    "fecha_fin": "2026-07-31",
    "tipo": "concierto",
    "lat": 40.4112,
    "lng": -3.6899,
    "lugar": "Real Jardín Botánico",
    "precio": "pago",
    "precio_desde": "25€",
    "descripcion": "Ciclo de conciertos al aire libre con artistas nacionales e internacionales",
    "url": "https://www.nochesdelbotanico.com/"
  },
  {
    "id": 8,
    "nombre": "Feria del Libro de Madrid",
    "fecha": "2026-05-29",
    "fecha_fin": "2026-06-14",
    "tipo": "cultural",
    "lat": 40.4153,
    "lng": -3.6844,
    "lugar": "Parque del Retiro",
    "precio": "gratis",
    "descripcion": "Feria del libro con firmas de autores, presentaciones y más de 300 casetas",
    "url": "https://ferialibromadrid.com/"
  },
  {
    "id": 9,
    "nombre": "Tomavistas Festival",
    "fecha": "2026-05-22",
    "fecha_fin": "2026-05-24",
    "tipo": "concierto",
    "lat": 40.4483,
    "lng": -3.6753,
    "lugar": "Parque Tierno Galván",
    "precio": "pago",
    "precio_desde": "55€",
    "descripcion": "Festival de música indie, pop y rock alternativo",
    "url": "https://tomavistas.com/"
  },
  {
    "id": 10,
    "nombre": "Fiestas de La Paloma",
    "fecha": "2026-08-10",
    "fecha_fin": "2026-08-15",
    "tipo": "fiesta",
    "lat": 40.4106,
    "lng": -3.7088,
    "lugar": "La Latina",
    "precio": "gratis",
    "descripcion": "Verbena popular madrileña con chulapos, música tradicional y actividades",
    "url": "https://www.madrid.es/"
  },
  {
    "id": 11,
    "nombre": "Cine de Verano Conde Duque",
    "fecha": "2026-07-01",
    "fecha_fin": "2026-08-31",
    "tipo": "cultural",
    "lat": 40.4275,
    "lng": -3.7134,
    "lugar": "Centro Cultural Conde Duque",
    "precio": "gratis",
    "descripcion": "Ciclo de cine al aire libre en el patio del centro cultural",
    "url": "https://www.condeduquemadrid.es/"
  },
  {
    "id": 12,
    "nombre": "Mercadillo de Sellos y Monedas",
    "fecha": "2026-04-26",
    "tipo": "mercado",
    "lat": 40.4192,
    "lng": -3.7025,
    "lugar": "Plaza Mayor",
    "precio": "gratis",
    "descripcion": "Mercado filatélico y numismático todos los domingos",
    "url": "https://www.esmadrid.com/"
  },
  {
    "id": 13,
    "nombre": "Teatro Real - Temporada Primavera",
    "fecha": "2026-05-01",
    "fecha_fin": "2026-07-31",
    "tipo": "cultural",
    "lat": 40.4179,
    "lng": -3.7106,
    "lugar": "Teatro Real",
    "precio": "pago",
    "precio_desde": "15€",
    "descripcion": "Temporada de ópera, ballet y conciertos sinfónicos",
    "url": "https://www.teatro-real.com/"
  },
  {
    "id": 14,
    "nombre": "Fiestas del Carmen",
    "fecha": "2026-07-16",
    "tipo": "fiesta",
    "lat": 40.4294,
    "lng": -3.7023,
    "lugar": "Chamberí",
    "precio": "gratis",
    "descripcion": "Verbena tradicional del barrio de Chamberí",
    "url": "https://www.madrid.es/"
  },
  {
    "id": 15,
    "nombre": "PhotoEspaña 2026",
    "fecha": "2026-06-03",
    "fecha_fin": "2026-08-30",
    "tipo": "cultural",
    "lat": 40.4168,
    "lng": -3.7038,
    "lugar": "Varios espacios",
    "precio": "gratis",
    "descripcion": "Festival internacional de fotografía y artes visuales",
    "url": "https://www.phe.es/"
  },
  {
    "id": 16,
    "nombre": "Conciertos WiZink Center",
    "fecha": "2026-06-15",
    "fecha_fin": "2026-07-30",
    "tipo": "concierto",
    "lat": 40.4225,
    "lng": -3.6703,
    "lugar": "WiZink Center",
    "precio": "pago",
    "precio_desde": "35€",
    "descripcion": "Programación de grandes conciertos internacionales",
    "url": "https://www.wizinkcenter.com/"
  },
  {
    "id": 17,
    "nombre": "Mercado de San Miguel",
    "fecha": "2026-04-26",
    "tipo": "gastronomia",
    "lat": 40.4155,
    "lng": -3.7092,
    "lugar": "Plaza de San Miguel",
    "precio": "pago",
    "descripcion": "Mercado gastronómico gourmet abierto todos los días",
    "url": "https://mercadodesanmiguel.es/"
  },
  {
    "id": 18,
    "nombre": "Feria de Cerámica",
    "fecha": "2026-05-01",
    "fecha_fin": "2026-05-31",
    "tipo": "mercado",
    "lat": 40.4238,
    "lng": -3.7122,
    "lugar": "Plaza de España",
    "precio": "gratis",
    "descripcion": "Feria de cerámica artesanal con alfareros de toda España",
    "url": "https://www.esmadrid.com/"
  },
  {
    "id": 19,
    "nombre": "Matadero Madrid",
    "fecha": "2026-05-01",
    "fecha_fin": "2026-08-31",
    "tipo": "cultural",
    "lat": 40.3936,
    "lng": -3.7006,
    "lugar": "Matadero Madrid",
    "precio": "gratis",
    "descripcion": "Centro de creación contemporánea con exposiciones y eventos",
    "url": "https://www.mataderomadrid.org/"
  },
  {
    "id": 20,
    "nombre": "Fiestas de San Cayetano",
    "fecha": "2026-08-07",
    "fecha_fin": "2026-08-09",
    "tipo": "fiesta",
    "lat": 40.4098,
    "lng": -3.7082,
    "lugar": "Lavapiés",
    "precio": "gratis",
    "descripcion": "Fiestas populares del barrio de Lavapiés",
    "url": "https://www.madrid.es/"
  },
  {
    "id": 21,
    "nombre": "DCODE Festival",
    "fecha": "2026-09-12",
    "tipo": "concierto",
    "lat": 40.4765,
    "lng": -3.7734,
    "lugar": "Campus Complutense",
    "precio": "pago",
    "precio_desde": "45€",
    "descripcion": "Festival de música indie y electrónica",
    "url": "https://dcodefest.com/"
  },
  {
    "id": 22,
    "nombre": "Mercado de Diseño",
    "fecha": "2026-05-16",
    "fecha_fin": "2026-05-17",
    "tipo": "mercado",
    "lat": 40.3936,
    "lng": -3.7006,
    "lugar": "Matadero Madrid",
    "precio": "gratis",
    "descripcion": "Mercado de diseño independiente, moda e ilustración",
    "url": "https://mercadodediseno.com/"
  },
  {
    "id": 23,
    "nombre": "Ruta de Tapas La Latina",
    "fecha": "2026-05-01",
    "tipo": "gastronomia",
    "lat": 40.4106,
    "lng": -3.7088,
    "lugar": "Barrio de La Latina",
    "precio": "pago",
    "precio_desde": "3€",
    "descripcion": "Ruta por las mejores tabernas y bares de tapas",
    "url": "https://www.esmadrid.com/"
  },
  {
    "id": 24,
    "nombre": "Tablao Corral de la Morería",
    "fecha": "2026-05-01",
    "fecha_fin": "2026-08-31",
    "tipo": "cultural",
    "lat": 40.4143,
    "lng": -3.7115,
    "lugar": "Corral de la Morería",
    "precio": "pago",
    "precio_desde": "55€",
    "descripcion": "Tablao flamenco con espectáculos diarios",
    "url": "https://corraldelamoreria.com/"
  },
  {
    "id": 25,
    "nombre": "Festival Gigante",
    "fecha": "2026-06-27",
    "tipo": "concierto",
    "lat": 40.4797,
    "lng": -3.6403,
    "lugar": "Hortaleza",
    "precio": "pago",
    "precio_desde": "30€",
    "descripcion": "Festival urbano de reggaeton, trap y música urbana",
    "url": "https://festivalgigante.com/"
  },
  {
    "id": 26,
    "nombre": "Gastrofestival Madrid",
    "fecha": "2026-05-01",
    "fecha_fin": "2026-05-31",
    "tipo": "gastronomia",
    "lat": 40.4168,
    "lng": -3.7038,
    "lugar": "Varios restaurantes",
    "precio": "pago",
    "precio_desde": "25€",
    "descripcion": "Festival gastronómico con menús especiales en restaurantes",
    "url": "https://www.esmadrid.com/"
  },
  {
    "id": 27,
    "nombre": "CentroCentro Exposiciones",
    "fecha": "2026-05-01",
    "fecha_fin": "2026-08-31",
    "tipo": "cultural",
    "lat": 40.4192,
    "lng": -3.6933,
    "lugar": "Palacio de Cibeles",
    "precio": "gratis",
    "descripcion": "Exposiciones de arte y mirador panorámico",
    "url": "https://www.centrocentro.org/"
  },
  {
    "id": 28,
    "nombre": "Madrid Río - Actividades Verano",
    "fecha": "2026-07-01",
    "fecha_fin": "2026-08-31",
    "tipo": "cultural",
    "lat": 40.4018,
    "lng": -3.7245,
    "lugar": "Parque Madrid Río",
    "precio": "gratis",
    "descripcion": "Yoga, tai chi, deportes y juegos acuáticos",
    "url": "https://www.madrid.es/"
  },
  {
    "id": 29,
    "nombre": "Feria de Artesanía El Retiro",
    "fecha": "2026-05-15",
    "fecha_fin": "2026-05-17",
    "tipo": "mercado",
    "lat": 40.4153,
    "lng": -3.6844,
    "lugar": "Parque del Retiro",
    "precio": "gratis",
    "descripcion": "Feria de artesanía con más de 100 expositores",
    "url": "https://www.esmadrid.com/"
  },
  {
    "id": 30,
    "nombre": "Jazz en Círculo Bellas Artes",
    "fecha": "2026-06-05",
    "fecha_fin": "2026-07-28",
    "tipo": "concierto",
    "lat": 40.4189,
    "lng": -3.6973,
    "lugar": "Círculo de Bellas Artes",
    "precio": "pago",
    "precio_desde": "20€",
    "descripcion": "Ciclo de jazz en la azotea con vistas panorámicas",
    "url": "https://www.circulobellasartes.com/"
  },
  {
    "id": 31,
    "nombre": "Tapas por Madrid",
    "fecha": "2026-05-22",
    "fecha_fin": "2026-06-07",
    "tipo": "gastronomia",
    "lat": 40.4168,
    "lng": -3.7038,
    "lugar": "Varios barrios",
    "precio": "pago",
    "precio_desde": "3€",
    "descripcion": "Ruta de tapas por más de 50 establecimientos",
    "url": "https://www.esmadrid.com/"
  },
  {
    "id": 32,
    "nombre": "Noches de Ramón - Reina Sofía",
    "fecha": "2026-07-03",
    "fecha_fin": "2026-08-28",
    "tipo": "cultural",
    "lat": 40.4083,
    "lng": -3.6944,
    "lugar": "Museo Reina Sofía",
    "precio": "gratis",
    "descripcion": "DJ sets, performances y proyecciones en el jardín",
    "url": "https://www.museoreinasofia.es/"
  },
  {
    "id": 33,
    "nombre": "Yoga Templo de Debod",
    "fecha": "2026-06-01",
    "fecha_fin": "2026-08-31",
    "tipo": "cultural",
    "lat": 40.4241,
    "lng": -3.7178,
    "lugar": "Templo de Debod",
    "precio": "gratis",
    "descripcion": "Clases gratuitas de yoga al amanecer y atardecer",
    "url": "https://www.madrid.es/"
  },
  {
    "id": 34,
    "nombre": "Brunch Festival",
    "fecha": "2026-05-30",
    "fecha_fin": "2026-05-31",
    "tipo": "gastronomia",
    "lat": 40.4065,
    "lng": -3.6914,
    "lugar": "Chamartín",
    "precio": "pago",
    "precio_desde": "15€",
    "descripcion": "Festival de brunch con food trucks y música",
    "url": "https://brunch-in.com/"
  },
  {
    "id": 35,
    "nombre": "Planetario de Madrid",
    "fecha": "2026-07-01",
    "fecha_fin": "2026-08-31",
    "tipo": "cultural",
    "lat": 40.4483,
    "lng": -3.6753,
    "lugar": "Parque Tierno Galván",
    "precio": "pago",
    "precio_desde": "3.60€",
    "descripcion": "Sesiones de astronomía y proyecciones 3D",
    "url": "https://planetmad.es/"
  },
  {
    "id": 36,
    "nombre": "Mercadillo Malasaña",
    "fecha": "2026-06-06",
    "tipo": "mercado",
    "lat": 40.4263,
    "lng": -3.7051,
    "lugar": "Plaza del Dos de Mayo",
    "precio": "gratis",
    "descripcion": "Mercadillo vintage con ropa, libros y vinilos",
    "url": "https://www.madrid.es/"
  },
  {
    "id": 37,
    "nombre": "Ruta del Cocido Madrileño",
    "fecha": "2026-05-01",
    "fecha_fin": "2026-06-30",
    "tipo": "gastronomia",
    "lat": 40.4168,
    "lng": -3.7038,
    "lugar": "Restaurantes tradicionales",
    "precio": "pago",
    "precio_desde": "25€",
    "descripcion": "Ruta por los mejores cocidos de Madrid",
    "url": "https://www.esmadrid.com/"
  },
  {
    "id": 38,
    "nombre": "Feria del Vinilo",
    "fecha": "2026-05-23",
    "tipo": "mercado",
    "lat": 40.4278,
    "lng": -3.6384,
    "lugar": "Mercado de La Elipa",
    "precio": "gratis",
    "descripcion": "Compraventa de vinilos, CDs y merchandising",
    "url": "https://www.madrid.es/"
  },
  {
    "id": 39,
    "nombre": "Cine de Verano La Bombilla",
    "fecha": "2026-07-01",
    "fecha_fin": "2026-08-31",
    "tipo": "cultural",
    "lat": 40.4189,
    "lng": -3.7298,
    "lugar": "Parque La Bombilla",
    "precio": "pago",
    "precio_desde": "3€",
    "descripcion": "Cine al aire libre con estrenos y clásicos",
    "url": "https://www.madrid.es/"
  },
  {
    "id": 40,
    "nombre": "Festival Solidario Casa de Campo",
    "fecha": "2026-06-13",
    "tipo": "concierto",
    "lat": 40.4233,
    "lng": -3.7598,
    "lugar": "Casa de Campo",
    "precio": "gratis",
    "descripcion": "Festival benéfico con conciertos y actividades",
    "url": "https://www.madrid.es/"
  },
  {
    "id": 41,
    "nombre": "Exposición de Bonsáis",
    "fecha": "2026-05-15",
    "fecha_fin": "2026-05-31",
    "tipo": "cultural",
    "lat": 40.4112,
    "lng": -3.6899,
    "lugar": "Jardín Botánico",
    "precio": "pago",
    "precio_desde": "6€",
    "descripcion": "Exposición de bonsáis y talleres",
    "url": "https://www.rjb.csic.es/"
  },
  {
    "id": 42,
    "nombre": "Mercado de Productores",
    "fecha": "2026-05-16",
    "tipo": "mercado",
    "lat": 40.4294,
    "lng": -3.7023,
    "lugar": "Mercado de Chamberí",
    "precio": "gratis",
    "descripcion": "Productos locales y ecológicos",
    "url": "https://www.mercadodechamberi.es/"
  },
  {
    "id": 43,
    "nombre": "Teatro Clásico El Retiro",
    "fecha": "2026-07-15",
    "fecha_fin": "2026-08-15",
    "tipo": "cultural",
    "lat": 40.4153,
    "lng": -3.6844,
    "lugar": "Teatro del Bosque",
    "precio": "gratis",
    "descripcion": "Teatro clásico español al aire libre",
    "url": "https://www.madrid.es/"
  },
  {
    "id": 44,
    "nombre": "Adopción de Animales",
    "fecha": "2026-06-06",
    "tipo": "cultural",
    "lat": 40.4153,
    "lng": -3.6844,
    "lugar": "Parque del Retiro",
    "precio": "gratis",
    "descripcion": "Jornada de adopción de perros y gatos",
    "url": "https://www.madrid.es/"
  },
  {
    "id": 45,
    "nombre": "Música Antigua",
    "fecha": "2026-06-19",
    "fecha_fin": "2026-06-28",
    "tipo": "concierto",
    "lat": 40.4818,
    "lng": -3.3641,
    "lugar": "Alcalá de Henares",
    "precio": "pago",
    "precio_desde": "15€",
    "descripcion": "Festival de música barroca y renacentista",
    "url": "https://www.turismoalcala.es/"
  },
  {
    "id": 46,
    "nombre": "Barcas Casa de Campo",
    "fecha": "2026-05-01",
    "fecha_fin": "2026-09-30",
    "tipo": "cultural",
    "lat": 40.4233,
    "lng": -3.7598,
    "lugar": "Lago Casa de Campo",
    "precio": "pago",
    "precio_desde": "7€",
    "descripcion": "Paseos en barca de remos y pedalones",
    "url": "https://www.madrid.es/"
  },
  {
    "id": 47,
    "nombre": "Feria de las Culturas",
    "fecha": "2026-05-29",
    "fecha_fin": "2026-05-31",
    "tipo": "cultural",
    "lat": 40.3936,
    "lng": -3.7006,
    "lugar": "Matadero Madrid",
    "precio": "gratis",
    "descripcion": "Encuentro multicultural con gastronomía y música",
    "url": "https://www.mataderomadrid.org/"
  },
  {
    "id": 48,
    "nombre": "Tablao Villa Rosa",
    "fecha": "2026-06-01",
    "fecha_fin": "2026-08-31",
    "tipo": "cultural",
    "lat": 40.4201,
    "lng": -3.6991,
    "lugar": "Plaza de Santa Ana",
    "precio": "pago",
    "precio_desde": "40€",
    "descripcion": "Espectáculos de flamenco diarios",
    "url": "https://www.villarosatablao.com/"
  },
  {
    "id": 49,
    "nombre": "Ruta de Street Art",
    "fecha": "2026-05-01",
    "tipo": "cultural",
    "lat": 40.4263,
    "lng": -3.7051,
    "lugar": "Malasaña y Lavapiés",
    "precio": "gratis",
    "descripcion": "Ruta guiada por murales y grafitis",
    "url": "https://cooltourspain.com/"
  },
  {
    "id": 50,
    "nombre": "Festival de Cortometrajes",
    "fecha": "2026-06-10",
    "fecha_fin": "2026-06-14",
    "tipo": "cultural",
    "lat": 40.3936,
    "lng": -3.7006,
    "lugar": "Cineteca Matadero",
    "precio": "gratis",
    "descripcion": "Proyecciones de cine independiente",
    "url": "https://www.cinetecamadrid.com/"
  }
]