[
  {
    "nombre": "Actividades mensuales de los centros de mayores del distrito Centro",
    "fecha": "2025-11-01 00:00:00.0",
    "tipo": "cultural",
    "lat": 40.4168,
    "lng": -3.7038,
    "lugar": "Madrid",
    "precio": "gratis",
    "descripcion": "",
    "url": "http://www.madrid.es/sites/v/index.jsp?vgnextchannel=ca9671ee4a9eb410VgnVCM100000171f5a0aRCRD&vgnextoid=b8d69bd86cd1b810VgnVCM2000001f4a900aRCRD",
    "fuente": "esmadrid",
    "id": 65
  },
  {
    "nombre": "Actividades mensuales de los centros de mayores del distrito Vicálvaro",
    "fecha": "2026-01-01 00:00:00.0",
    "tipo": "cultural",
    "lat": 40.4168,
    "lng": -3.7038,
    "lugar": "Madrid",
    "precio": "gratis",
    "descripcion": "",
    "url": "http://www.madrid.es/sites/v/index.jsp?vgnextchannel=ca9671ee4a9eb410VgnVCM100000171f5a0aRCRD&vgnextoid=1454a9913813d810VgnVCM1000001d4a900aRCRD",
    "fuente": "esmadrid",
    "id": 66
  },
  {
    "nombre": "Ana Juan",
    "fecha": "2026-01-29 00:00:00.0",
    "tipo": "cultural",
    "lat": 40.41902261618159,
    "lng": -3.692188193693138,
    "lugar": "Madrid",
    "precio": "gratis",
    "descripcion": "",
    "url": "http://www.madrid.es/sites/v/index.jsp?vgnextchannel=ca9671ee4a9eb410VgnVCM100000171f5a0aRCRD&vgnextoid=70b80f933779b910VgnVCM200000f921e388RCRD",
    "fuente": "esmadrid",
    "id": 76
  },
  {
    "nombre": "4 ESCULTORES 4",
    "fecha": "2026-03-02 00:00:00.0",
    "tipo": "cultural",
    "lat": 40.420280457570335,
    "lng": -3.621730741880216,
    "lugar": "Madrid",
    "precio": "gratis",
    "descripcion": "Exposición de escultura. Andrés Álvarez Ilzarbe, Andrés Lasanta, Andreu Moreno, José Manuel Martínez Pérez  La obra expuesta es la desarrollada a lo largo de su vida profesional, sin más pretensiones ",
    "url": "http://www.madrid.es/sites/v/index.jsp?vgnextchannel=ca9671ee4a9eb410VgnVCM100000171f5a0aRCRD&vgnextoid=578a70734957c910VgnVCM100000891ecb1aRCRD",
    "fuente": "esmadrid",
    "id": 53
  },
  {
    "nombre": "Ángel De Andrés",
    "fecha": "2026-04-09 19:00:00.0",
    "tipo": "concierto",
    "lat": 40.44071019620189,
    "lng": -3.652412289521502,
    "lugar": "Madrid",
    "precio": "gratis",
    "descripcion": "Un viaje a la música de los años 60 y 70, un homenaje a las canciones que marcaron a generaciones y que hoy siguen en la memoria colectiva.     Duración: 60 minutos",
    "url": "http://www.madrid.es/sites/v/index.jsp?vgnextchannel=ca9671ee4a9eb410VgnVCM100000171f5a0aRCRD&vgnextoid=21a0e0350052d910VgnVCM100000891ecb1aRCRD",
    "fuente": "esmadrid",
    "id": 80
  },
  {
    "nombre": "África en Resonancia. Viaje cultural y estreno mundial de Kora para arpa sola",
    "fecha": "2026-04-10 19:00:00.0",
    "tipo": "concierto",
    "lat": 40.40741060830642,
    "lng": -3.7119168856897677,
    "lugar": "Madrid",
    "precio": "gratis",
    "descripcion": "'África en Resonancia' es una actividad que combina charla y concierto en torno a la tradición musical africana y su contraste con la música occidental.     La charla propone una aproximación general ",
    "url": "http://www.madrid.es/sites/v/index.jsp?vgnextchannel=ca9671ee4a9eb410VgnVCM100000171f5a0aRCRD&vgnextoid=3b546dbb5b42d910VgnVCM200000f921e388RCRD",
    "fuente": "esmadrid",
    "id": 68
  },
  {
    "nombre": "Alfredo García",
    "fecha": "2026-04-10 19:00:00.0",
    "tipo": "concierto",
    "lat": 40.43200001609297,
    "lng": -3.670904677285496,
    "lugar": "Madrid",
    "precio": "gratis",
    "descripcion": "Tenemos el placer de anunciaros que Alfredo García (antes Alfa, Le Punk y Buenas Noches Rose) ofrecerá un concierto acústico en el Centro Cultural Buenavista, en el que repasará canciones de toda su t",
    "url": "http://www.madrid.es/sites/v/index.jsp?vgnextchannel=ca9671ee4a9eb410VgnVCM100000171f5a0aRCRD&vgnextoid=f157a01714b0d910VgnVCM200000f921e388RCRD",
    "fuente": "esmadrid",
    "id": 70
  },
  {
    "nombre": "4º Festival Pies Inquietos. Talleres infantiles: jugando a mares",
    "fecha": "2026-04-12 00:00:00.0",
    "tipo": "concierto",
    "lat": 40.49042200599307,
    "lng": -3.6553467891079854,
    "lugar": "Madrid",
    "precio": "gratis",
    "descripcion": "4º festival de artes escénicas para la primera infancia.  Compañía Laclá. Entrada: 10 euros (la entrada incluye 1 adulto y un niño/a). Edad recomendada de 0 a 6 años. Aforo: 15 peques y 15 acompañante",
    "url": "http://www.madrid.es/sites/v/index.jsp?vgnextchannel=ca9671ee4a9eb410VgnVCM100000171f5a0aRCRD&vgnextoid=6087c4ec2a26d910VgnVCM200000f921e388RCRD",
    "fuente": "esmadrid",
    "id": 56
  },
  {
    "nombre": "Achús. 100 % Recomendable",
    "fecha": "2026-04-12 12:00:00.0",
    "tipo": "cultural",
    "lat": 40.44071019620189,
    "lng": -3.652412289521502,
    "lugar": "Madrid",
    "precio": "gratis",
    "descripcion": "Achús     Llega Achús, uno de los payasos más destacados, con un espectáculo lleno de magia, bailes, juegos, globoflexia, improvisación y risas garantizadas.     Duración: 50 minutos   Edad recomendad",
    "url": "http://www.madrid.es/sites/v/index.jsp?vgnextchannel=ca9671ee4a9eb410VgnVCM100000171f5a0aRCRD&vgnextoid=f7b3e0350052d910VgnVCM100000891ecb1aRCRD",
    "fuente": "esmadrid",
    "id": 63
  },
  {
    "nombre": "A por la Plata",
    "fecha": "2026-04-12 18:00:00.0",
    "tipo": "cultural",
    "lat": 40.44834125150792,
    "lng": -3.6761992414203526,
    "lugar": "Madrid",
    "precio": "gratis",
    "descripcion": "COMPAÑÍA: Cía. Materia NerviosaGÉNERO: Teatro gestual, títeres, teatro de sombras.PÚBLICO: Público Familiar  ¿Preparados para embarcaros en la mayor aventura pirata, sin tener que salir de la butaca?¡",
    "url": "http://www.madrid.es/sites/v/index.jsp?vgnextchannel=ca9671ee4a9eb410VgnVCM100000171f5a0aRCRD&vgnextoid=190e74520fa0d910VgnVCM200000f921e388RCRD",
    "fuente": "esmadrid",
    "id": 58
  },
  {
    "nombre": "Algo le pasa a mi yerno",
    "fecha": "2026-04-15 19:00:00.0",
    "tipo": "cultural",
    "lat": 40.46678417843686,
    "lng": -3.7195598670929315,
    "lugar": "Madrid",
    "precio": "gratis",
    "descripcion": "Presentado por Mar Barbero   Sinopsis  Cinco años de psicoterapia no han servido para aliviar la ansiedad vital de Damien. El Dr. Beranger ya no lo soporta. Así que le echa con un reto terapéutico: en",
    "url": "http://www.madrid.es/sites/v/index.jsp?vgnextchannel=ca9671ee4a9eb410VgnVCM100000171f5a0aRCRD&vgnextoid=85218bdbb5a0d910VgnVCM200000f921e388RCRD",
    "fuente": "esmadrid",
    "id": 71
  },
  {
    "nombre": "Algunos Quijotes fueron nuestros, con Félix Martín Franco",
    "fecha": "2026-04-16 18:00:00.0",
    "tipo": "cultural",
    "lat": 40.47860087334554,
    "lng": -3.7094408342979954,
    "lugar": "Madrid",
    "precio": "gratis",
    "descripcion": "",
    "url": "http://www.madrid.es/sites/v/index.jsp?vgnextchannel=ca9671ee4a9eb410VgnVCM100000171f5a0aRCRD&vgnextoid=591b7bc78884d910VgnVCM200000f921e388RCRD",
    "fuente": "esmadrid",
    "id": 72
  },
  {
    "nombre": "All Lele 众乐乐 - Retiro",
    "fecha": "2026-04-17 17:00:00.0",
    "tipo": "cultural",
    "lat": 40.4168,
    "lng": -3.7038,
    "lugar": "Madrid",
    "precio": "gratis",
    "descripcion": "",
    "url": "http://www.madrid.es/sites/v/index.jsp?vgnextchannel=ca9671ee4a9eb410VgnVCM100000171f5a0aRCRD&vgnextoid=24cee58cdebdc910VgnVCM200000f921e388RCRD",
    "fuente": "esmadrid",
    "id": 74
  },
  {
    "nombre": "A Camarón y Paco de Lucía en Moratalaz",
    "fecha": "2026-04-18 19:00:00.0",
    "tipo": "cultural",
    "lat": 40.40610655994401,
    "lng": -3.646521482592748,
    "lugar": "Madrid",
    "precio": "gratis",
    "descripcion": "",
    "url": "http://www.madrid.es/sites/v/index.jsp?vgnextchannel=ca9671ee4a9eb410VgnVCM100000171f5a0aRCRD&vgnextoid=301e4ffc65bdb910VgnVCM200000f921e388RCRD",
    "fuente": "esmadrid",
    "id": 57
  },
  {
    "nombre": "4º Festival Pies Inquietos. Seres siderales",
    "fecha": "2026-04-19 12:00:00.0",
    "tipo": "concierto",
    "lat": 40.49042200599307,
    "lng": -3.6553467891079854,
    "lugar": "Madrid",
    "precio": "gratis",
    "descripcion": "4º festival de artes escénicas para la primera infancia.  Compañía Ingobernart. Entrada: 10 euros (la entrada incluye 1 adulto y un niño/a). Edad recomendada de 2 a 6 años. Aforo: 15 peques y 15 acomp",
    "url": "http://www.madrid.es/sites/v/index.jsp?vgnextchannel=ca9671ee4a9eb410VgnVCM100000171f5a0aRCRD&vgnextoid=c9c807aefb26d910VgnVCM200000f921e388RCRD",
    "fuente": "esmadrid",
    "id": 55
  },
  {
    "nombre": "Agustina",
    "fecha": "2026-04-19 12:00:00.0",
    "tipo": "cultural",
    "lat": 40.40218085880392,
    "lng": -3.60141148450391,
    "lugar": "Madrid",
    "precio": "gratis",
    "descripcion": "La compañía Ido Loca, presenta 'Agustina'.  Agustina sabe lo que quiere y va a por ello: el equilibrio del ser. Pero… ¿cómo alcanzar tal sueño? Es el truco más difícil… y lo es porque no requiere ning",
    "url": "http://www.madrid.es/sites/v/index.jsp?vgnextchannel=ca9671ee4a9eb410VgnVCM100000171f5a0aRCRD&vgnextoid=406bb9631592d910VgnVCM100000891ecb1aRCRD",
    "fuente": "esmadrid",
    "id": 69
  },
  {
    "nombre": "Alicia en el país de las maravillas",
    "fecha": "2026-04-19 12:00:00.0",
    "tipo": "concierto",
    "lat": 40.36969488211539,
    "lng": -3.7081179166391824,
    "lugar": "Madrid",
    "precio": "gratis",
    "descripcion": "Compañía: Hilando Títeres.  Categoría: Infantil.  Edad recomendada: mayores de 3 años.  Duración: 50 minutos La actuación contará con intérprete de Lengua de Signos (LSE).   Sinopsis: Ciclo de actuaci",
    "url": "http://www.madrid.es/sites/v/index.jsp?vgnextchannel=ca9671ee4a9eb410VgnVCM100000171f5a0aRCRD&vgnextoid=30d7ed440ee1d910VgnVCM200000f921e388RCRD",
    "fuente": "esmadrid",
    "id": 73
  },
  {
    "nombre": "Anatomía de la novela negra. Dinamiza Lucía Seijas",
    "fecha": "2026-04-21 00:00:00.0",
    "tipo": "cultural",
    "lat": 40.45224710166,
    "lng": -3.658029027767765,
    "lugar": "Madrid",
    "precio": "gratis",
    "descripcion": "Nos sumergiremos en el lado más oscuro de la narrativa con una invitada que conoce los entresijos del sistema judicial y la investigación desde una perspectiva privilegiada. Lucía Seijas nos desvelará",
    "url": "http://www.madrid.es/sites/v/index.jsp?vgnextchannel=ca9671ee4a9eb410VgnVCM100000171f5a0aRCRD&vgnextoid=599b86b086f2d910VgnVCM100000891ecb1aRCRD",
    "fuente": "esmadrid",
    "id": 77
  },
  {
    "nombre": "Animación, magia e ilusionismo",
    "fecha": "2026-04-24 18:00:00.0",
    "tipo": "concierto",
    "lat": 40.41906571939961,
    "lng": -3.684053112760816,
    "lugar": "Madrid",
    "precio": "gratis",
    "descripcion": "Magia.    Juande Rodríguez y Yaiza Espinosa.   Artista multidisciplinar con más de diez años de experiencia en el mundo del espectáculo y el entretenimiento. La actuación y la magia son su arte, la in",
    "url": "http://www.madrid.es/sites/v/index.jsp?vgnextchannel=ca9671ee4a9eb410VgnVCM100000171f5a0aRCRD&vgnextoid=566cd441c61ca910VgnVCM200000f921e388RCRD",
    "fuente": "esmadrid",
    "id": 81
  },
  {
    "nombre": "Adiós Moskis, adiós",
    "fecha": "2026-04-24 19:00:00.0",
    "tipo": "cultural",
    "lat": 40.44477474902185,
    "lng": -3.6129105844633775,
    "lugar": "Madrid",
    "precio": "gratis",
    "descripcion": "Cía.: Asociación Trifásico teatro.   Recomendada a partir de 18 años.   Moskis es un cómico frustrado que nunca ha conseguido el éxito, vive en una habitación de un hostal alejado de su familia a la q",
    "url": "http://www.madrid.es/sites/v/index.jsp?vgnextchannel=ca9671ee4a9eb410VgnVCM100000171f5a0aRCRD&vgnextoid=c19024a399d3d910VgnVCM100000891ecb1aRCRD",
    "fuente": "esmadrid",
    "id": 67
  },
  {
    "nombre": "All you need is love",
    "fecha": "2026-04-24 19:00:00.0",
    "tipo": "cultural",
    "lat": 40.393619022093546,
    "lng": -3.6556016835101834,
    "lugar": "Madrid",
    "precio": "gratis",
    "descripcion": "¿Qué es el amor? María nos adentrará en ese maravilloso mundo, a través de sus experiencias nos hablará en clave de humor, de todas esas vivencias por las que todos y todas hemos pasado alguna vez en ",
    "url": "http://www.madrid.es/sites/v/index.jsp?vgnextchannel=ca9671ee4a9eb410VgnVCM100000171f5a0aRCRD&vgnextoid=a379a02df2e3d910VgnVCM100000891ecb1aRCRD",
    "fuente": "esmadrid",
    "id": 75
  },
  {
    "nombre": "46 Juegos Deportivos Municipales",
    "fecha": "2026-04-25 15:30:00.0",
    "tipo": "cultural",
    "lat": 40.41433123768487,
    "lng": -3.6559498758522833,
    "lugar": "Madrid",
    "precio": "gratis",
    "descripcion": "",
    "url": "http://www.madrid.es/sites/v/index.jsp?vgnextchannel=ca9671ee4a9eb410VgnVCM100000171f5a0aRCRD&vgnextoid=f988006c59a1d910VgnVCM100000891ecb1aRCRD",
    "fuente": "esmadrid",
    "id": 54
  },
  {
    "nombre": "Actividad infantil: Detectives de la ciudad. Taller familiar exposición Naturaleza de asfalto.",
    "fecha": "2026-04-25 17:30:00.0",
    "tipo": "cultural",
    "lat": 40.42577054821346,
    "lng": -3.700845660719608,
    "lugar": "Madrid",
    "precio": "gratis",
    "descripcion": "¿Te imaginas mirar Madrid como lo hace un artista?Te invitamos a 'Detectives de la ciudad', un taller familiar inspirado en la exposiciónNaturaleza de Asfalto de José Miguel Palacio.Comenzaremos con u",
    "url": "http://www.madrid.es/sites/v/index.jsp?vgnextchannel=ca9671ee4a9eb410VgnVCM100000171f5a0aRCRD&vgnextoid=cbe9111df826d910VgnVCM200000f921e388RCRD",
    "fuente": "esmadrid",
    "id": 64
  },
  {
    "id": 3,
    "nombre": "El Rastro",
    "fecha": "2026-04-26",
    "tipo": "mercado",
    "lat": 40.4089,
    "lng": -3.7077,
    "lugar": "Ribera de Curtidores - La Latina",
    "precio": "gratis",
    "descripcion": "Mercadillo al aire libre más famoso de Madrid. Domingos y festivos de 9h a 15h",
    "url": "https://www.esmadrid.com/informacion-turistica/el-rastro"
  },
  {
    "id": 12,
    "nombre": "Mercadillo de Sellos y Monedas",
    "fecha": "2026-04-26",
    "tipo": "mercado",
    "lat": 40.4192,
    "lng": -3.7025,
    "lugar": "Plaza Mayor",
    "precio": "gratis",
    "descripcion": "Mercado filatélico y numismático todos los domingos",
    "url": "https://www.esmadrid.com/"
  },
  {
    "id": 17,
    "nombre": "Mercado de San Miguel",
    "fecha": "2026-04-26",
    "tipo": "gastronomia",
    "lat": 40.4155,
    "lng": -3.7092,
    "lugar": "Plaza de San Miguel",
    "precio": "pago",
    "descripcion": "Mercado gastronómico gourmet abierto todos los días",
    "url": "https://mercadodesanmiguel.es/"
  },
  {
    "nombre": "Andrés Zorn: Recorrer el mundo, recordar la tierra.",
    "fecha": "2026-04-29 18:00:00.0",
    "tipo": "cultural",
    "lat": 40.4293927571053,
    "lng": -3.664846244443566,
    "lugar": "Madrid",
    "precio": "gratis",
    "descripcion": "(Fundación Mapfre. Paseo de Recoletos, 23 28004 MADRID)Esta exposición es la primera gran retrospectiva en España dedicada a este maestro sueco, considerando uno de los pintores más relevantes del cam",
    "url": "http://www.madrid.es/sites/v/index.jsp?vgnextchannel=ca9671ee4a9eb410VgnVCM100000171f5a0aRCRD&vgnextoid=89c7470235a1d910VgnVCM200000f921e388RCRD",
    "fuente": "esmadrid",
    "id": 79
  },
  {
    "nombre": "A salto de mata",
    "fecha": "2026-04-29 19:00:00.0",
    "tipo": "cultural",
    "lat": 40.39130985242181,
    "lng": -3.6958028442054074,
    "lugar": "Madrid",
    "precio": "gratis",
    "descripcion": "",
    "url": "http://www.madrid.es/sites/v/index.jsp?vgnextchannel=ca9671ee4a9eb410VgnVCM100000171f5a0aRCRD&vgnextoid=f5f2b310c03cc910VgnVCM100000891ecb1aRCRD",
    "fuente": "esmadrid",
    "id": 60
  },
  {
    "id": 13,
    "nombre": "Teatro Real - Temporada Primavera",
    "fecha": "2026-05-01",
    "fecha_fin": "2026-07-31",
    "tipo": "cultural",
    "lat": 40.4179,
    "lng": -3.7106,
    "lugar": "Teatro Real",
    "precio": "pago",
    "precio_desde": "15€",
    "descripcion": "Temporada de ópera, ballet y conciertos sinfónicos",
    "url": "https://www.teatro-real.com/"
  },
  {
    "id": 18,
    "nombre": "Feria de Cerámica",
    "fecha": "2026-05-01",
    "fecha_fin": "2026-05-31",
    "tipo": "mercado",
    "lat": 40.4238,
    "lng": -3.7122,
    "lugar": "Plaza de España",
    "precio": "gratis",
    "descripcion": "Feria de cerámica artesanal con alfareros de toda España",
    "url": "https://www.esmadrid.com/"
  },
  {
    "id": 19,
    "nombre": "Matadero Madrid",
    "fecha": "2026-05-01",
    "fecha_fin": "2026-08-31",
    "tipo": "cultural",
    "lat": 40.3936,
    "lng": -3.7006,
    "lugar": "Matadero Madrid",
    "precio": "gratis",
    "descripcion": "Centro de creación contemporánea con exposiciones y eventos",
    "url": "https://www.mataderomadrid.org/"
  },
  {
    "id": 23,
    "nombre": "Ruta de Tapas La Latina",
    "fecha": "2026-05-01",
    "tipo": "gastronomia",
    "lat": 40.4106,
    "lng": -3.7088,
    "lugar": "Barrio de La Latina",
    "precio": "pago",
    "precio_desde": "3€",
    "descripcion": "Ruta por las mejores tabernas y bares de tapas",
    "url": "https://www.esmadrid.com/"
  },
  {
    "id": 24,
    "nombre": "Tablao Corral de la Morería",
    "fecha": "2026-05-01",
    "fecha_fin": "2026-08-31",
    "tipo": "cultural",
    "lat": 40.4143,
    "lng": -3.7115,
    "lugar": "Corral de la Morería",
    "precio": "pago",
    "precio_desde": "55€",
    "descripcion": "Tablao flamenco con espectáculos diarios",
    "url": "https://corraldelamoreria.com/"
  },
  {
    "id": 26,
    "nombre": "Gastrofestival Madrid",
    "fecha": "2026-05-01",
    "fecha_fin": "2026-05-31",
    "tipo": "gastronomia",
    "lat": 40.4168,
    "lng": -3.7038,
    "lugar": "Varios restaurantes",
    "precio": "pago",
    "precio_desde": "25€",
    "descripcion": "Festival gastronómico con menús especiales en restaurantes",
    "url": "https://www.esmadrid.com/"
  },
  {
    "id": 27,
    "nombre": "CentroCentro Exposiciones",
    "fecha": "2026-05-01",
    "fecha_fin": "2026-08-31",
    "tipo": "cultural",
    "lat": 40.4192,
    "lng": -3.6933,
    "lugar": "Palacio de Cibeles",
    "precio": "gratis",
    "descripcion": "Exposiciones de arte y mirador panorámico",
    "url": "https://www.centrocentro.org/"
  },
  {
    "id": 37,
    "nombre": "Ruta del Cocido Madrileño",
    "fecha": "2026-05-01",
    "fecha_fin": "2026-06-30",
    "tipo": "gastronomia",
    "lat": 40.4168,
    "lng": -3.7038,
    "lugar": "Restaurantes tradicionales",
    "precio": "pago",
    "precio_desde": "25€",
    "descripcion": "Ruta por los mejores cocidos de Madrid",
    "url": "https://www.esmadrid.com/"
  },
  {
    "id": 46,
    "nombre": "Barcas Casa de Campo",
    "fecha": "2026-05-01",
    "fecha_fin": "2026-09-30",
    "tipo": "cultural",
    "lat": 40.4233,
    "lng": -3.7598,
    "lugar": "Lago Casa de Campo",
    "precio": "pago",
    "precio_desde": "7€",
    "descripcion": "Paseos en barca de remos y pedalones",
    "url": "https://www.madrid.es/"
  },
  {
    "id": 49,
    "nombre": "Ruta de Street Art",
    "fecha": "2026-05-01",
    "tipo": "cultural",
    "lat": 40.4263,
    "lng": -3.7051,
    "lugar": "Malasaña y Lavapiés",
    "precio": "gratis",
    "descripcion": "Ruta guiada por murales y grafitis",
    "url": "https://cooltourspain.com/"
  },
  {
    "id": 5,
    "nombre": "Mercado de Motores",
    "fecha": "2026-05-09",
    "fecha_fin": "2026-05-10",
    "tipo": "mercado",
    "lat": 40.3985,
    "lng": -3.6904,
    "lugar": "Museo del Ferrocarril",
    "precio": "gratis",
    "descripcion": "Mercado vintage: moda, vinilos, diseño, gastronomía street food y música en vivo",
    "url": "https://www.mercadodemotores.es/"
  },
  {
    "id": 2,
    "nombre": "Fiestas de San Isidro 2026",
    "fecha": "2026-05-15",
    "fecha_fin": "2026-05-20",
    "tipo": "fiesta",
    "lat": 40.4086,
    "lng": -3.6922,
    "lugar": "Pradera de San Isidro",
    "precio": "gratis",
    "descripcion": "Fiestas patronales de Madrid con verbenas, conciertos gratuitos y actividades tradicionales",
    "url": "https://www.madrid.es/"
  },
  {
    "id": 7,
    "nombre": "Noches del Botánico",
    "fecha": "2026-05-15",
    "fecha_fin": "2026-07-31",
    "tipo": "concierto",
    "lat": 40.4112,
    "lng": -3.6899,
    "lugar": "Real Jardín Botánico",
    "precio": "pago",
    "precio_desde": "25€",
    "descripcion": "Ciclo de conciertos al aire libre con artistas nacionales e internacionales",
    "url": "https://www.nochesdelbotanico.com/"
  },
  {
    "id": 29,
    "nombre": "Feria de Artesanía El Retiro",
    "fecha": "2026-05-15",
    "fecha_fin": "2026-05-17",
    "tipo": "mercado",
    "lat": 40.4153,
    "lng": -3.6844,
    "lugar": "Parque del Retiro",
    "precio": "gratis",
    "descripcion": "Feria de artesanía con más de 100 expositores",
    "url": "https://www.esmadrid.com/"
  },
  {
    "id": 41,
    "nombre": "Exposición de Bonsáis",
    "fecha": "2026-05-15",
    "fecha_fin": "2026-05-31",
    "tipo": "cultural",
    "lat": 40.4112,
    "lng": -3.6899,
    "lugar": "Jardín Botánico",
    "precio": "pago",
    "precio_desde": "6€",
    "descripcion": "Exposición de bonsáis y talleres",
    "url": "https://www.rjb.csic.es/"
  },
  {
    "id": 22,
    "nombre": "Mercado de Diseño",
    "fecha": "2026-05-16",
    "fecha_fin": "2026-05-17",
    "tipo": "mercado",
    "lat": 40.3936,
    "lng": -3.7006,
    "lugar": "Matadero Madrid",
    "precio": "gratis",
    "descripcion": "Mercado de diseño independiente, moda e ilustración",
    "url": "https://mercadodediseno.com/"
  },
  {
    "id": 42,
    "nombre": "Mercado de Productores",
    "fecha": "2026-05-16",
    "tipo": "mercado",
    "lat": 40.4294,
    "lng": -3.7023,
    "lugar": "Mercado de Chamberí",
    "precio": "gratis",
    "descripcion": "Productos locales y ecológicos",
    "url": "https://www.mercadodechamberi.es/"
  },
  {
    "id": 9,
    "nombre": "Tomavistas Festival",
    "fecha": "2026-05-22",
    "fecha_fin": "2026-05-24",
    "tipo": "concierto",
    "lat": 40.4483,
    "lng": -3.6753,
    "lugar": "Parque Tierno Galván",
    "precio": "pago",
    "precio_desde": "55€",
    "descripcion": "Festival de música indie, pop y rock alternativo",
    "url": "https://tomavistas.com/"
  },
  {
    "id": 31,
    "nombre": "Tapas por Madrid",
    "fecha": "2026-05-22",
    "fecha_fin": "2026-06-07",
    "tipo": "gastronomia",
    "lat": 40.4168,
    "lng": -3.7038,
    "lugar": "Varios barrios",
    "precio": "pago",
    "precio_desde": "3€",
    "descripcion": "Ruta de tapas por más de 50 establecimientos",
    "url": "https://www.esmadrid.com/"
  },
  {
    "id": 38,
    "nombre": "Feria del Vinilo",
    "fecha": "2026-05-23",
    "tipo": "mercado",
    "lat": 40.4278,
    "lng": -3.6384,
    "lugar": "Mercado de La Elipa",
    "precio": "gratis",
    "descripcion": "Compraventa de vinilos, CDs y merchandising",
    "url": "https://www.madrid.es/"
  },
  {
    "id": 8,
    "nombre": "Feria del Libro de Madrid",
    "fecha": "2026-05-29",
    "fecha_fin": "2026-06-14",
    "tipo": "cultural",
    "lat": 40.4153,
    "lng": -3.6844,
    "lugar": "Parque del Retiro",
    "precio": "gratis",
    "descripcion": "Feria del libro con firmas de autores, presentaciones y más de 300 casetas",
    "url": "https://ferialibromadrid.com/"
  },
  {
    "id": 47,
    "nombre": "Feria de las Culturas",
    "fecha": "2026-05-29",
    "fecha_fin": "2026-05-31",
    "tipo": "cultural",
    "lat": 40.3936,
    "lng": -3.7006,
    "lugar": "Matadero Madrid",
    "precio": "gratis",
    "descripcion": "Encuentro multicultural con gastronomía y música",
    "url": "https://www.mataderomadrid.org/"
  },
  {
    "id": 34,
    "nombre": "Brunch Festival",
    "fecha": "2026-05-30",
    "fecha_fin": "2026-05-31",
    "tipo": "gastronomia",
    "lat": 40.4065,
    "lng": -3.6914,
    "lugar": "Chamartín",
    "precio": "pago",
    "precio_desde": "15€",
    "descripcion": "Festival de brunch con food trucks y música",
    "url": "https://brunch-in.com/"
  },
  {
    "id": 33,
    "nombre": "Yoga Templo de Debod",
    "fecha": "2026-06-01",
    "fecha_fin": "2026-08-31",
    "tipo": "cultural",
    "lat": 40.4241,
    "lng": -3.7178,
    "lugar": "Templo de Debod",
    "precio": "gratis",
    "descripcion": "Clases gratuitas de yoga al amanecer y atardecer",
    "url": "https://www.madrid.es/"
  },
  {
    "id": 48,
    "nombre": "Tablao Villa Rosa",
    "fecha": "2026-06-01",
    "fecha_fin": "2026-08-31",
    "tipo": "cultural",
    "lat": 40.4201,
    "lng": -3.6991,
    "lugar": "Plaza de Santa Ana",
    "precio": "pago",
    "precio_desde": "40€",
    "descripcion": "Espectáculos de flamenco diarios",
    "url": "https://www.villarosatablao.com/"
  },
  {
    "nombre": "",
    "fecha": "2026-06-01",
    "tipo": "cultural",
    "lat": 40.4237,
    "lng": -3.6899,
    "lugar": "Madrid",
    "precio": "pago",
    "descripcion": "",
    "url": "https://www.timeout.es/madrid/es/viaje/rutas-senderismo-cerca-madrid",
    "fuente": "timeout",
    "id": 51
  },
  {
    "id": 15,
    "nombre": "PhotoEspaña 2026",
    "fecha": "2026-06-03",
    "fecha_fin": "2026-08-30",
    "tipo": "cultural",
    "lat": 40.4168,
    "lng": -3.7038,
    "lugar": "Varios espacios",
    "precio": "gratis",
    "descripcion": "Festival internacional de fotografía y artes visuales",
    "url": "https://www.phe.es/"
  },
  {
    "id": 30,
    "nombre": "Jazz en Círculo Bellas Artes",
    "fecha": "2026-06-05",
    "fecha_fin": "2026-07-28",
    "tipo": "concierto",
    "lat": 40.4189,
    "lng": -3.6973,
    "lugar": "Círculo de Bellas Artes",
    "precio": "pago",
    "precio_desde": "20€",
    "descripcion": "Ciclo de jazz en la azotea con vistas panorámicas",
    "url": "https://www.circulobellasartes.com/"
  },
  {
    "id": 36,
    "nombre": "Mercadillo Malasaña",
    "fecha": "2026-06-06",
    "tipo": "mercado",
    "lat": 40.4263,
    "lng": -3.7051,
    "lugar": "Plaza del Dos de Mayo",
    "precio": "gratis",
    "descripcion": "Mercadillo vintage con ropa, libros y vinilos",
    "url": "https://www.madrid.es/"
  },
  {
    "id": 44,
    "nombre": "Adopción de Animales",
    "fecha": "2026-06-06",
    "tipo": "cultural",
    "lat": 40.4153,
    "lng": -3.6844,
    "lugar": "Parque del Retiro",
    "precio": "gratis",
    "descripcion": "Jornada de adopción de perros y gatos",
    "url": "https://www.madrid.es/"
  },
  {
    "id": 50,
    "nombre": "Festival de Cortometrajes",
    "fecha": "2026-06-10",
    "fecha_fin": "2026-06-14",
    "tipo": "cultural",
    "lat": 40.3936,
    "lng": -3.7006,
    "lugar": "Cineteca Matadero",
    "precio": "gratis",
    "descripcion": "Proyecciones de cine independiente",
    "url": "https://www.cinetecamadrid.com/"
  },
  {
    "nombre": "4 escenas, 4 estilos",
    "fecha": "2026-06-12 19:00:00.0",
    "tipo": "cultural",
    "lat": 40.41906571939961,
    "lng": -3.684053112760816,
    "lugar": "Madrid",
    "precio": "gratis",
    "descripcion": "",
    "url": "http://www.madrid.es/sites/v/index.jsp?vgnextchannel=ca9671ee4a9eb410VgnVCM100000171f5a0aRCRD&vgnextoid=f88a48b5276fc910VgnVCM100000891ecb1aRCRD",
    "fuente": "esmadrid",
    "id": 52
  },
  {
    "id": 40,
    "nombre": "Festival Solidario Casa de Campo",
    "fecha": "2026-06-13",
    "tipo": "concierto",
    "lat": 40.4233,
    "lng": -3.7598,
    "lugar": "Casa de Campo",
    "precio": "gratis",
    "descripcion": "Festival benéfico con conciertos y actividades",
    "url": "https://www.madrid.es/"
  },
  {
    "id": 16,
    "nombre": "Conciertos WiZink Center",
    "fecha": "2026-06-15",
    "fecha_fin": "2026-07-30",
    "tipo": "concierto",
    "lat": 40.4225,
    "lng": -3.6703,
    "lugar": "WiZink Center",
    "precio": "pago",
    "precio_desde": "35€",
    "descripcion": "Programación de grandes conciertos internacionales",
    "url": "https://www.wizinkcenter.com/"
  },
  {
    "id": 45,
    "nombre": "Música Antigua",
    "fecha": "2026-06-19",
    "fecha_fin": "2026-06-28",
    "tipo": "concierto",
    "lat": 40.4818,
    "lng": -3.3641,
    "lugar": "Alcalá de Henares",
    "precio": "pago",
    "precio_desde": "15€",
    "descripcion": "Festival de música barroca y renacentista",
    "url": "https://www.turismoalcala.es/"
  },
  {
    "nombre": "Andrea Peña «Bogotá»",
    "fecha": "2026-06-26 19:30:00.0",
    "tipo": "cultural",
    "lat": 40.42739911262292,
    "lng": -3.710589286287491,
    "lugar": "Madrid",
    "precio": "gratis",
    "descripcion": "",
    "url": "http://www.madrid.es/sites/v/index.jsp?vgnextchannel=ca9671ee4a9eb410VgnVCM100000171f5a0aRCRD&vgnextoid=9314b4d724339910VgnVCM200000f921e388RCRD",
    "fuente": "esmadrid",
    "id": 78
  },
  {
    "id": 25,
    "nombre": "Festival Gigante",
    "fecha": "2026-06-27",
    "tipo": "concierto",
    "lat": 40.4797,
    "lng": -3.6403,
    "lugar": "Hortaleza",
    "precio": "pago",
    "precio_desde": "30€",
    "descripcion": "Festival urbano de reggaeton, trap y música urbana",
    "url": "https://festivalgigante.com/"
  },
  {
    "id": 4,
    "nombre": "Veranos de la Villa 2026",
    "fecha": "2026-07-01",
    "fecha_fin": "2026-08-31",
    "tipo": "cultural",
    "lat": 40.4168,
    "lng": -3.7038,
    "lugar": "Varios espacios de Madrid",
    "precio": "gratis",
    "descripcion": "Festival cultural de verano con música, teatro, danza y cine al aire libre",
    "url": "https://www.madrid.es/portales/munimadrid/es/Inicio/Cultura-ocio-y-deporte/Cultura-y-ocio/Veranos-de-la-Villa"
  },
  {
    "id": 11,
    "nombre": "Cine de Verano Conde Duque",
    "fecha": "2026-07-01",
    "fecha_fin": "2026-08-31",
    "tipo": "cultural",
    "lat": 40.4275,
    "lng": -3.7134,
    "lugar": "Centro Cultural Conde Duque",
    "precio": "gratis",
    "descripcion": "Ciclo de cine al aire libre en el patio del centro cultural",
    "url": "https://www.condeduquemadrid.es/"
  },
  {
    "id": 28,
    "nombre": "Madrid Río - Actividades Verano",
    "fecha": "2026-07-01",
    "fecha_fin": "2026-08-31",
    "tipo": "cultural",
    "lat": 40.4018,
    "lng": -3.7245,
    "lugar": "Parque Madrid Río",
    "precio": "gratis",
    "descripcion": "Yoga, tai chi, deportes y juegos acuáticos",
    "url": "https://www.madrid.es/"
  },
  {
    "id": 35,
    "nombre": "Planetario de Madrid",
    "fecha": "2026-07-01",
    "fecha_fin": "2026-08-31",
    "tipo": "cultural",
    "lat": 40.4483,
    "lng": -3.6753,
    "lugar": "Parque Tierno Galván",
    "precio": "pago",
    "precio_desde": "3.60€",
    "descripcion": "Sesiones de astronomía y proyecciones 3D",
    "url": "https://planetmad.es/"
  },
  {
    "id": 39,
    "nombre": "Cine de Verano La Bombilla",
    "fecha": "2026-07-01",
    "fecha_fin": "2026-08-31",
    "tipo": "cultural",
    "lat": 40.4189,
    "lng": -3.7298,
    "lugar": "Parque La Bombilla",
    "precio": "pago",
    "precio_desde": "3€",
    "descripcion": "Cine al aire libre con estrenos y clásicos",
    "url": "https://www.madrid.es/"
  },
  {
    "id": 6,
    "nombre": "Orgullo LGTBI+ Madrid 2026",
    "fecha": "2026-07-03",
    "fecha_fin": "2026-07-07",
    "tipo": "fiesta",
    "lat": 40.4197,
    "lng": -3.6925,
    "lugar": "Chueca - Gran Vía",
    "precio": "gratis",
    "descripcion": "Manifestación, conciertos y eventos del Orgullo LGTBI+, uno de los más grandes de Europa",
    "url": "https://www.madrid.es/"
  },
  {
    "id": 32,
    "nombre": "Noches de Ramón - Reina Sofía",
    "fecha": "2026-07-03",
    "fecha_fin": "2026-08-28",
    "tipo": "cultural",
    "lat": 40.4083,
    "lng": -3.6944,
    "lugar": "Museo Reina Sofía",
    "precio": "gratis",
    "descripcion": "DJ sets, performances y proyecciones en el jardín",
    "url": "https://www.museoreinasofia.es/"
  },
  {
    "id": 1,
    "nombre": "Mad Cool Festival 2026",
    "fecha": "2026-07-10",
    "fecha_fin": "2026-07-12",
    "tipo": "concierto",
    "lat": 40.4637,
    "lng": -3.6748,
    "lugar": "Espacio Mad Cool - Valdebebas",
    "precio": "pago",
    "precio_desde": "89€",
    "descripcion": "Festival de música indie, rock y electrónica con artistas internacionales de primer nivel",
    "url": "https://madcoolfestival.com/"
  },
  {
    "id": 43,
    "nombre": "Teatro Clásico El Retiro",
    "fecha": "2026-07-15",
    "fecha_fin": "2026-08-15",
    "tipo": "cultural",
    "lat": 40.4153,
    "lng": -3.6844,
    "lugar": "Teatro del Bosque",
    "precio": "gratis",
    "descripcion": "Teatro clásico español al aire libre",
    "url": "https://www.madrid.es/"
  },
  {
    "id": 14,
    "nombre": "Fiestas del Carmen",
    "fecha": "2026-07-16",
    "tipo": "fiesta",
    "lat": 40.4294,
    "lng": -3.7023,
    "lugar": "Chamberí",
    "precio": "gratis",
    "descripcion": "Verbena tradicional del barrio de Chamberí",
    "url": "https://www.madrid.es/"
  },
  {
    "id": 20,
    "nombre": "Fiestas de San Cayetano",
    "fecha": "2026-08-07",
    "fecha_fin": "2026-08-09",
    "tipo": "fiesta",
    "lat": 40.4098,
    "lng": -3.7082,
    "lugar": "Lavapiés",
    "precio": "gratis",
    "descripcion": "Fiestas populares del barrio de Lavapiés",
    "url": "https://www.madrid.es/"
  },
  {
    "id": 10,
    "nombre": "Fiestas de La Paloma",
    "fecha": "2026-08-10",
    "fecha_fin": "2026-08-15",
    "tipo": "fiesta",
    "lat": 40.4106,
    "lng": -3.7088,
    "lugar": "La Latina",
    "precio": "gratis",
    "descripcion": "Verbena popular madrileña con chulapos, música tradicional y actividades",
    "url": "https://www.madrid.es/"
  },
  {
    "id": 21,
    "nombre": "DCODE Festival",
    "fecha": "2026-09-12",
    "tipo": "concierto",
    "lat": 40.4765,
    "lng": -3.7734,
    "lugar": "Campus Complutense",
    "precio": "pago",
    "precio_desde": "45€",
    "descripcion": "Festival de música indie y electrónica",
    "url": "https://dcodefest.com/"
  }
]